[
  {
    "id": 30565,
    "name": "Hoover High School (HHS)",
    "address": "4474 El Cajon Blvd, San Diego, CA 92115",
    "latitude": 32.7555,
    "longitude": -117.098,
    "phone": "",
    "description": "",
    "show_in_client_mode": false,
    "slug": "hoover-high-school-hhs",
    "position": 1,
    "hidden_at": null,
    "formatted_address": "4474 El Cajon Blvd, San Diego, CA 92115, USA",
    "street_address": "4474 El Cajon Boulevard",
    "street_address2": null,
    "city": "San Diego",
    "state_code": "CA",
    "postal_code": "92115",
    "country_code": "US",
    "timezone_friendly": "Pacific Time (US & Canada)",
    "timezone": "America/Los_Angeles",
    "code": "HHS"
  },
  {
    "id": 23281,
    "name": "Virtual Learning / Online  (VL)",
    "address": "",
    "latitude": null,
    "longitude": null,
    "phone": "",
    "description": "This is an online class. You will receive a Zoom link by email after you enroll in classes. <br>",
    "show_in_client_mode": false,
    "slug": "virtual-learning-online-vl",
    "position": 2,
    "hidden_at": null,
    "formatted_address": "",
    "street_address": null,
    "street_address2": null,
    "city": null,
    "state_code": null,
    "postal_code": null,
    "country_code": null,
    "timezone_friendly": "Pacific Time (US & Canada)",
    "timezone": "America/Los_Angeles",
    "code": "VL"
  },
  {
    "id": 22675,
    "name": "Carmel Valley Campus (CV)",
    "address": "12625 High Bluff Drive, San Diego, CA, 92130, United States",
    "latitude": 32.9474,
    "longitude": -117.239,
    "phone": "(858) 284-0481",
    "description": "The Hacienda Building<br>Please park in rear of building and enter through rear courtyard entrance.",
    "show_in_client_mode": true,
    "slug": "carmel-valley-campus-cv",
    "position": 3,
    "hidden_at": null,
    "formatted_address": "12625 High Bluff Drive, San Diego, CA, 92130, United States",
    "street_address": "12625 High Bluff Drive",
    "street_address2": null,
    "city": "San Diego",
    "state_code": "CA",
    "postal_code": "92130",
    "country_code": "US",
    "timezone_friendly": "Pacific Time (US & Canada)",
    "timezone": "America/Los_Angeles",
    "code": "CV"
  },
  {
    "id": 41357,
    "name": "Cal Coast Academy(CCA)",
    "address": "11555 Clews Ranch Road, San Diego, California 92130",
    "latitude": 32.9402,
    "longitude": -117.219,
    "phone": "",
    "description": "",
    "show_in_client_mode": false,
    "slug": "cal-coast-academy-cca",
    "position": 4,
    "hidden_at": null,
    "formatted_address": "11555 Clews Ranch Rd, San Diego, CA 92130, USA",
    "street_address": "11555 Clews Ranch Road",
    "street_address2": null,
    "city": "San Diego",
    "state_code": "CA",
    "postal_code": "92130",
    "country_code": "US",
    "timezone_friendly": "Pacific Time (US & Canada)",
    "timezone": "America/Los_Angeles",
    "code": "CCA"
  },
  {
    "id": 42768,
    "name": "School of the Madeleine (SOTM)",
    "address": "1875 Illion St, San Diego, CA 92110",
    "latitude": 32.7793,
    "longitude": -117.199,
    "phone": "",
    "description": "",
    "show_in_client_mode": false,
    "slug": "school-of-the-madeleine-sotm",
    "position": 5,
    "hidden_at": null,
    "formatted_address": "1875 Illion St, San Diego, CA 92110, USA",
    "street_address": "1875 Illion Street",
    "street_address2": null,
    "city": "San Diego",
    "state_code": "CA",
    "postal_code": "92110",
    "country_code": "US",
    "timezone_friendly": "Pacific Time (US & Canada)",
    "timezone": "America/Los_Angeles",
    "code": "SOTM"
  },
  {
    "id": 42802,
    "name": "St. James Academy (SJA)",
    "address": "623 S Nardo Ave, Solana Beach, CA 92075",
    "latitude": 32.984,
    "longitude": -117.264,
    "phone": "",
    "description": "",
    "show_in_client_mode": false,
    "slug": "st-james-academy-sja",
    "position": 6,
    "hidden_at": null,
    "formatted_address": "623 S Nardo Ave, Solana Beach, CA 92075, USA",
    "street_address": "623 South Nardo Avenue",
    "street_address2": null,
    "city": "Solana Beach",
    "state_code": "CA",
    "postal_code": "92075",
    "country_code": "US",
    "timezone_friendly": "Pacific Time (US & Canada)",
    "timezone": "America/Los_Angeles",
    "code": "SJA"
  },
  {
    "id": 42836,
    "name": "St. Martin of Tours Academy (SMOTA)",
    "address": "7708 El Cajon Blvd, La Mesa, CA 91942",
    "latitude": 32.7695,
    "longitude": -117.031,
    "phone": "",
    "description": "",
    "show_in_client_mode": false,
    "slug": "st-martin-of-tours-academy-smota",
    "position": 7,
    "hidden_at": null,
    "formatted_address": "7708 El Cajon Blvd, La Mesa, CA 91942, USA",
    "street_address": "7708 El Cajon Boulevard",
    "street_address2": null,
    "city": "La Mesa",
    "state_code": "CA",
    "postal_code": "91942",
    "country_code": "US",
    "timezone_friendly": "Pacific Time (US & Canada)",
    "timezone": "America/Los_Angeles",
    "code": "SMOTA"
  },
  {
    "id": 42448,
    "name": "Busboom Workshop (BW)",
    "address": "1370 Wilbur Avenue, San Diego, CA, 92109, United States",
    "latitude": 32.8066,
    "longitude": -117.247,
    "phone": "6198897571",
    "description": "Home workshop of the League's Director, Eric Busboom. Enter from the alley behind the house.",
    "show_in_client_mode": false,
    "slug": "busboom-workshop-bw",
    "position": 14,
    "hidden_at": null,
    "formatted_address": "1370 Wilbur Avenue, San Diego, CA, 92109, United States",
    "street_address": "1370 Wilbur Avenue",
    "street_address2": null,
    "city": "San Diego",
    "state_code": "CA",
    "postal_code": "92109",
    "country_code": "US",
    "timezone_friendly": "Pacific Time (US & Canada)",
    "timezone": "America/Los_Angeles",
    "code": "BW"
  },
  {
    "id": 42856,
    "name": "St. Mary School Escondido (STME)",
    "address": "130 East 13th Avenue, Escondido, CA, 92025, United States",
    "latitude": 33.1117,
    "longitude": -117.073,
    "phone": "",
    "description": "",
    "show_in_client_mode": false,
    "slug": "st-mary-school-escondido-stme",
    "position": 15,
    "hidden_at": null,
    "formatted_address": "130 East 13th Avenue, Escondido, CA, 92025, United States",
    "street_address": "130 East 13th Avenue",
    "street_address2": null,
    "city": "Escondido",
    "state_code": "CA",
    "postal_code": "92025",
    "country_code": "US",
    "timezone_friendly": "Pacific Time (US & Canada)",
    "timezone": "America/Los_Angeles",
    "code": "STME"
  },
  {
    "id": 42915,
    "name": "Torah High (THS)",
    "address": "9001 Towne Center Drive, San Diego, CA, 92122, United States",
    "latitude": 32.871,
    "longitude": -117.207,
    "phone": "858.558.6880",
    "description": "",
    "show_in_client_mode": false,
    "slug": "torah-high-ths",
    "position": 16,
    "hidden_at": null,
    "formatted_address": "9001 Towne Center Drive, San Diego, CA, 92122, United States",
    "street_address": "9001 Towne Center Drive",
    "street_address2": "",
    "city": "San Diego",
    "state_code": "CA",
    "postal_code": "92122",
    "country_code": "US",
    "timezone_friendly": "Pacific Time (US & Canada)",
    "timezone": "America/Los_Angeles",
    "code": "THS"
  },
  {
    "id": 43070,
    "name": "St. Rita\u2019s School (SRS)",
    "address": "5165 Imperial Avenue, San Diego, CA, 92114, United States",
    "latitude": 32.705,
    "longitude": -117.083,
    "phone": "",
    "description": "",
    "show_in_client_mode": false,
    "slug": "st-rita-s-school-srs",
    "position": 17,
    "hidden_at": null,
    "formatted_address": "5165 Imperial Avenue, San Diego, CA, 92114, United States",
    "street_address": "5165 Imperial Avenue",
    "street_address2": "",
    "city": "San Diego",
    "state_code": "CA",
    "postal_code": "92114",
    "country_code": "US",
    "timezone_friendly": "Pacific Time (US & Canada)",
    "timezone": "America/Los_Angeles",
    "code": "SRS"
  },
  {
    "id": 43318,
    "name": "City Heights/Weingart Library (CHWL)",
    "address": "3795 Fairmount Ave, San Diego, CA, 92105, United States",
    "latitude": 32.7474,
    "longitude": -117.1,
    "phone": "",
    "description": "",
    "show_in_client_mode": false,
    "slug": "city-heights-weingart-library-chwl",
    "position": 18,
    "hidden_at": null,
    "formatted_address": "3795 Fairmount Ave, San Diego, CA, 92105, United States",
    "street_address": "3795 Fairmount Ave",
    "street_address2": "",
    "city": "San Diego",
    "state_code": "CA",
    "postal_code": "92105",
    "country_code": "US",
    "timezone_friendly": "Pacific Time (US & Canada)",
    "timezone": "America/Los_Angeles",
    "code": "CHWL"
  },
  {
    "id": 43319,
    "name": "Mission Valley Library (MVL)",
    "address": "2123 Fenton Pkwy, San Diego, CA, 92108, United States",
    "latitude": 32.7793,
    "longitude": -117.127,
    "phone": "",
    "description": "",
    "show_in_client_mode": false,
    "slug": "mission-valley-library-mvl",
    "position": 19,
    "hidden_at": null,
    "formatted_address": "2123 Fenton Pkwy, San Diego, CA, 92108, United States",
    "street_address": "2123 Fenton Pkwy",
    "street_address2": "",
    "city": "San Diego",
    "state_code": "CA",
    "postal_code": "92108",
    "country_code": "US",
    "timezone_friendly": "Pacific Time (US & Canada)",
    "timezone": "America/Los_Angeles",
    "code": "MVL"
  },
  {
    "id": 43320,
    "name": "Rancho Bernardo Library (RBL)",
    "address": "17110 Bernardo Center Dr, San Diego, CA, 92128, United States",
    "latitude": 33.0249,
    "longitude": -117.075,
    "phone": "",
    "description": "",
    "show_in_client_mode": false,
    "slug": "rancho-bernardo-library-rbl",
    "position": 20,
    "hidden_at": null,
    "formatted_address": "17110 Bernardo Center Dr, San Diego, CA, 92128, United States",
    "street_address": "17110 Bernardo Center Dr",
    "street_address2": "",
    "city": "San Diego",
    "state_code": "CA",
    "postal_code": "92128",
    "country_code": "US",
    "timezone_friendly": "Pacific Time (US & Canada)",
    "timezone": "America/Los_Angeles",
    "code": "RBL"
  },
  {
    "id": 43321,
    "name": "North University Community Library (NUCL)",
    "address": "8820 Judicial Dr, San Diego, CA, 92122, United States",
    "latitude": 32.8676,
    "longitude": -117.199,
    "phone": "",
    "description": "",
    "show_in_client_mode": false,
    "slug": "north-university-community-library-nucl",
    "position": 21,
    "hidden_at": null,
    "formatted_address": "8820 Judicial Dr, San Diego, CA, 92122, United States",
    "street_address": "8820 Judicial Dr",
    "street_address2": "",
    "city": "San Diego",
    "state_code": "CA",
    "postal_code": "92122",
    "country_code": "US",
    "timezone_friendly": "Pacific Time (US & Canada)",
    "timezone": "America/Los_Angeles",
    "code": "NUCL"
  },
  {
    "id": 43322,
    "name": "Solana Beach County  Library (SBCL)",
    "address": "157 Stevens Ave, Solana Beach, CA, 92075, United States",
    "latitude": 32.9943,
    "longitude": -117.263,
    "phone": "",
    "description": "",
    "show_in_client_mode": false,
    "slug": "solana-beach-county-library-sbcl",
    "position": 22,
    "hidden_at": null,
    "formatted_address": "157 Stevens Ave, Solana Beach, CA, 92075, United States",
    "street_address": "157 Stevens Ave",
    "street_address2": "",
    "city": "Solana Beach",
    "state_code": "CA",
    "postal_code": "92075",
    "country_code": "US",
    "timezone_friendly": "Pacific Time (US & Canada)",
    "timezone": "America/Los_Angeles",
    "code": "SBCL"
  },
  {
    "id": 43324,
    "name": "Mountain View/Beckwourth Library (MVBL)",
    "address": "721 San Pasqual St, San Diego, CA, 92113, United States",
    "latitude": 32.698,
    "longitude": -117.103,
    "phone": "",
    "description": "",
    "show_in_client_mode": false,
    "slug": "mountain-view-beckwourth-library-mvbl",
    "position": 23,
    "hidden_at": null,
    "formatted_address": "721 San Pasqual St, San Diego, CA, 92113, United States",
    "street_address": "721 San Pasqual St",
    "street_address2": "",
    "city": "San Diego",
    "state_code": "CA",
    "postal_code": "92113",
    "country_code": "US",
    "timezone_friendly": "Pacific Time (US & Canada)",
    "timezone": "America/Los_Angeles",
    "code": "MVBL"
  },
  {
    "id": 43325,
    "name": "Carmel Mountain Ranch Library (CMRL)",
    "address": "12095 World Trade Dr, San Diego, CA, 92128, United States",
    "latitude": 32.9817,
    "longitude": -117.074,
    "phone": "",
    "description": "",
    "show_in_client_mode": false,
    "slug": "carmel-mountain-ranch-library-cmrl",
    "position": 24,
    "hidden_at": null,
    "formatted_address": "12095 World Trade Dr, San Diego, CA, 92128, United States",
    "street_address": "12095 World Trade Dr",
    "street_address2": "",
    "city": "San Diego",
    "state_code": "CA",
    "postal_code": "92128",
    "country_code": "US",
    "timezone_friendly": "Pacific Time (US & Canada)",
    "timezone": "America/Los_Angeles",
    "code": "CMRL"
  },
  {
    "id": 43326,
    "name": "Pacific Highlands Ranch Library (PHRL)",
    "address": "12911 Pacific Point Place, San Diego, CA, 92130, United States",
    "latitude": 32.9614,
    "longitude": -117.188,
    "phone": "",
    "description": "",
    "show_in_client_mode": false,
    "slug": "pacific-highlands-ranch-library-phrl",
    "position": 25,
    "hidden_at": null,
    "formatted_address": "12911 Pacific Point Place, San Diego, CA, 92130, United States",
    "street_address": "12911 Pacific Point Place",
    "street_address2": "",
    "city": "San Diego",
    "state_code": "CA",
    "postal_code": "92130",
    "country_code": "US",
    "timezone_friendly": "Pacific Time (US & Canada)",
    "timezone": "America/Los_Angeles",
    "code": "PHRL"
  },
  {
    "id": 43514,
    "name": "Mt. Everest Academy (MTE)",
    "address": "4350 Mt Everest Blvd, San Diego, CA, 92117, United States",
    "latitude": 32.8203,
    "longitude": -117.187,
    "phone": "",
    "description": "",
    "show_in_client_mode": false,
    "slug": "mt-everest-academy-mte",
    "position": 26,
    "hidden_at": null,
    "formatted_address": "4350 Mt Everest Blvd, San Diego, CA, 92117, United States",
    "street_address": "4350 Mt Everest Blvd",
    "street_address2": "",
    "city": "San Diego",
    "state_code": "CA",
    "postal_code": "92117",
    "country_code": "US",
    "timezone_friendly": "Pacific Time (US & Canada)",
    "timezone": "America/Los_Angeles",
    "code": "MTE"
  },
  {
    "id": 43519,
    "name": "Santa Fe Christian (SFC)",
    "address": "838 Academy Dr., Solana Beach, CA, 92075, United States",
    "latitude": 32.9923,
    "longitude": -117.258,
    "phone": "",
    "description": "",
    "show_in_client_mode": false,
    "slug": "santa-fe-christian-sfc",
    "position": 27,
    "hidden_at": null,
    "formatted_address": "838 Academy Dr., Solana Beach, CA 92075, United States",
    "street_address": "838 Academy Dr.",
    "street_address2": "",
    "city": "Solana Beach",
    "state_code": "CA",
    "postal_code": "92075",
    "country_code": "US",
    "timezone_friendly": "Pacific Time (US & Canada)",
    "timezone": "America/Los_Angeles",
    "code": "SFC"
  },
  {
    "id": 43617,
    "name": "RiSE Hub (RH)",
    "address": "9420 Activity Road, #H, San Diego, CA, United States",
    "latitude": 32.8976,
    "longitude": -117.125,
    "phone": "",
    "description": "",
    "show_in_client_mode": false,
    "slug": "rise-hub-rh",
    "position": 57,
    "hidden_at": null,
    "formatted_address": "9420 Activity Road, #H, San Diego, CA, United States",
    "street_address": "9420 Activity Road",
    "street_address2": "#H",
    "city": "San Diego",
    "state_code": "CA",
    "postal_code": "",
    "country_code": "US",
    "timezone_friendly": "Pacific Time (US & Canada)",
    "timezone": "America/Los_Angeles",
    "code": "RH"
  },
  {
    "id": 44086,
    "name": "Fandory Factory (FF)",
    "address": "16787 Bernardo Center Dr, Ste 7, San Diego, CA, 92128, United States",
    "latitude": 33.0196,
    "longitude": -117.074,
    "phone": "(858) 304-0889",
    "description": "",
    "show_in_client_mode": false,
    "slug": "fandory-factory-ff",
    "position": 58,
    "hidden_at": null,
    "formatted_address": "16787 Bernardo Center Dr, Ste 7, San Diego, CA, 92128, United States",
    "street_address": "16787 Bernardo Center Dr",
    "street_address2": "Ste 7",
    "city": "San Diego",
    "state_code": "CA",
    "postal_code": "92128",
    "country_code": "US",
    "timezone_friendly": "Pacific Time (US & Canada)",
    "timezone": "America/Los_Angeles",
    "code": "FF"
  },
  {
    "id": 44501,
    "name": "After School Learning Tree (LT)",
    "address": "11525 Sorrento Valley Rd, STE A, San Diego, CA, 92121, United States",
    "latitude": null,
    "longitude": null,
    "phone": "",
    "description": "",
    "show_in_client_mode": false,
    "slug": "after-school-learning-tree-lt",
    "position": 59,
    "hidden_at": null,
    "formatted_address": "11525 Sorrento Valley Rd, STE A, San Diego, CA, 92121, United States",
    "street_address": "11525 Sorrento Valley Rd",
    "street_address2": "STE A",
    "city": "San Diego",
    "state_code": "CA",
    "postal_code": "92121",
    "country_code": "US",
    "timezone_friendly": "Pacific Time (US & Canada)",
    "timezone": "America/Los_Angeles",
    "code": "LT"
  },
  {
    "id": 44502,
    "name": "Wonder Quest Learning Center (WQ)",
    "address": "11236 El Camino Real, suite 100, San Diego, CA, 92130, United States",
    "latitude": null,
    "longitude": null,
    "phone": "",
    "description": "",
    "show_in_client_mode": false,
    "slug": "wonder-quest-learning-center-wq",
    "position": 60,
    "hidden_at": null,
    "formatted_address": "11236 El Camino Real, suite 100, San Diego, CA, 92130, United States",
    "street_address": "11236 El Camino Real",
    "street_address2": "suite 100",
    "city": "San Diego",
    "state_code": "CA",
    "postal_code": "92130",
    "country_code": "US",
    "timezone_friendly": "Pacific Time (US & Canada)",
    "timezone": "America/Los_Angeles",
    "code": "WQ"
  },
  {
    "id": 44503,
    "name": "The Legacy Alliance (LA)",
    "address": "1918 Redwing St. San Marcos, San Marcos, CA, 92078, United States",
    "latitude": null,
    "longitude": null,
    "phone": "",
    "description": "",
    "show_in_client_mode": false,
    "slug": "the-legacy-alliance-la",
    "position": 61,
    "hidden_at": null,
    "formatted_address": "1918 Redwing St. San Marcos, San Marcos, CA, 92078, United States",
    "street_address": "1918 Redwing St. San Marcos",
    "street_address2": "",
    "city": "San Marcos",
    "state_code": "CA",
    "postal_code": "92078",
    "country_code": "US",
    "timezone_friendly": "Pacific Time (US & Canada)",
    "timezone": "America/Los_Angeles",
    "code": "LA"
  },
  {
    "id": 44549,
    "name": "St. Francis of Assisi (SFA)",
    "address": "525 W Vista Way, Vista, CA, 92083, United States",
    "latitude": null,
    "longitude": null,
    "phone": "",
    "description": "",
    "show_in_client_mode": false,
    "slug": "st-francis-of-assisi-sfa",
    "position": 62,
    "hidden_at": null,
    "formatted_address": "525 W Vista Way, Vista, CA, 92083, United States",
    "street_address": "525 W Vista Way",
    "street_address2": "",
    "city": "Vista",
    "state_code": "CA",
    "postal_code": "92083",
    "country_code": "US",
    "timezone_friendly": "Pacific Time (US & Canada)",
    "timezone": "America/Los_Angeles",
    "code": "SFA"
  },
  {
    "id": 44584,
    "name": "High Tech High Mesa (HTH)",
    "address": "5331 Mt Alifan Dr., San Diego, CA, 92111, United States",
    "latitude": null,
    "longitude": null,
    "phone": "",
    "description": "",
    "show_in_client_mode": false,
    "slug": "high-tech-high-mesa-hth",
    "position": 63,
    "hidden_at": null,
    "formatted_address": "5331 Mt Alifan Dr., San Diego, CA, 92111, United States",
    "street_address": "5331 Mt Alifan Dr.",
    "street_address2": "",
    "city": "San Diego",
    "state_code": "CA",
    "postal_code": "92111",
    "country_code": "US",
    "timezone_friendly": "Pacific Time (US & Canada)",
    "timezone": "America/Los_Angeles",
    "code": "HTH"
  }
]